[
  {
    "model": "Service",
    "data": {
      "id": 1,
      "type": "Barber"
    }
  },
  {
    "model": "Service",
    "data": {
      "id": 2,
      "type": "Mechanic"
    }
  },
  {
    "model": "User",
    "data": {
      "id": 1,
      "email": "test@test.com",
      "name": "Mariano 0kpalefe",
      "service_id": 1,
      "auth0_id": "auth0|590914e09d6860661e3fb7fb",
      "address": "1128 Irolo St, Los Angeles, CA 90006",
      "geo_lat": 34.050274,
      "geo_long":  -118.300763
    }
  },
  {
    "model": "User",
    "data": {
      "id": 2,
      "email": "test2@test.com",
      "name": "David de Sousa",
      "service_id": 1,
      "auth0_id": "auth0|590929df6a75e447a8cad216",
      "address": "970 S Gramercy Pl",
      "geo_lat": 34.053739,
      "geo_long":  -118.312972
    }
  },
  {
    "model": "User",
    "data": {
      "id": 3,
      "email": "test3@test.com",
      "name": "Kevin Liu",
      "service_id": 2,
      "auth0_id": "auth0|59092cb09d6860661e3fbaa6",
      "address": "2634 W 17th St, Los Angeles, CA 90019",
      "geo_lat": 34.041782,
      "geo_long":  -118.318982
    }
  },
  {
    "model": "User",
    "data": {
      "id": 4,
      "email": "test4@test.com",
      "name": "Hugo Dolemieux",
      "service_id": 2,
      "auth0_id": "auth0|59092cb89d6860661e3fbaa7",
      "address": "345 S Oxford Ave, Los Angeles, CA 90020",
      "geo_lat": 34.067745,
      "geo_long":  -118.308225
    }
  },
  {
    "model": "User",
    "data": {
      "id": 5,
      "email": "test5@test.com",
      "name": "Ron Swanson",
      "service_id": 2,
      "auth0_id": "auth0|5909471d3614eb59f2bbcb7a",
      "address": "1142 S Diamond Bar Blvd, Diamond Bar, CA 91765",
      "geo_lat": 34.001745,
      "geo_long":  -117.809078
    }
  }
]